{
  "institutions": [
    {
      "name": "Alabama Constitution Hall Park",
      "city": "Huntsville",
      "state": "Alabama",
      "address": "109 Gates Ave SE, Huntsville, AL 35801",
      "coordinates": {
        "latitude": 34.7306,
        "longitude": -86.5861
      },
      "phone": "(256) 564-8100"
    },
    {
      "name": "Alabama Museum of Natural History",
      "city": "Tuscaloosa",
      "state": "Alabama",
      "address": "427 Sixth Ave, Tuscaloosa, AL 35487",
      "coordinates": {
        "latitude": 33.2098,
        "longitude": -87.5416
      },
      "phone": "(205) 348-7550"
    },
    {
      "name": "Burritt on the Mountain",
      "city": "Huntsville",
      "state": "Alabama",
      "address": "3101 Burritt Dr SE, Huntsville, AL 35801",
      "coordinates": {
        "latitude": 34.7247,
        "longitude": -86.5475
      },
      "phone": "(256) 536-2882"
    },
    {
      "name": "Historic Oakleigh",
      "city": "Mobile",
      "state": "Alabama",
      "address": "350 Oakleigh Pl, Mobile, AL 36604",
      "coordinates": {
        "latitude": 30.6849,
        "longitude": -88.0567
      },
      "phone": "(251) 432-6161"
    },
    {
      "name": "History Museum of Mobile",
      "city": "Mobile",
      "state": "Alabama",
      "address": "111 S Royal St, Mobile, AL 36602",
      "coordinates": {
        "latitude": 30.6916,
        "longitude": -88.0419
      },
      "phone": "(251) 208-7569"
    },
    {
      "name": "Huntsville Botanical Garden",
      "city": "Huntsville",
      "state": "",
      "address": "4747 Bob Wallace Ave SW, Huntsville, AL 35805",
      "coordinates": {
        "latitude": 34.6984,
        "longitude": -86.6449
      },
      "phone": "(256) 830-4447"
    },
    {
      "name": "Huntsville Museum of Art",
      "city": "Huntsville",
      "state": "Alabama",
      "address": "300 Church St SW, Huntsville, AL 35801",
      "coordinates": {
        "latitude": 34.7294,
        "longitude": -86.5875
      },
      "phone": "(256) 535-4350"
    },
    {
      "name": "Imagination Place Children's Museum",
      "city": "Gadsden",
      "state": "Alabama",
      "address": "501 Broad St, Gadsden, AL 35901",
      "coordinates": {
        "latitude": 34.0146,
        "longitude": -86.0075
      },
      "phone": "(256) 543-2787"
    },
    {
      "name": "McWane Science Center",
      "city": "Birmingham",
      "state": "Alabama",
      "address": "200 19th St N, Birmingham, AL 35203",
      "coordinates": {
        "latitude": 33.5168,
        "longitude": -86.8104
      },
      "phone": "(205) 714-8300"
    },
    {
      "name": "Mobile Botanical Gardens",
      "city": "Mobile",
      "state": "Alabama",
      "address": "5151 Museum Dr, Mobile, AL 36608",
      "coordinates": {
        "latitude": 30.7002,
        "longitude": -88.1567
      },
      "phone": "(251) 342-0555"
    },
    {
      "name": "The EarlyWorks Children's Museum",
      "city": "Huntsville",
      "state": "Alabama",
      "address": "404 Madison St SE, Huntsville, AL 35801",
      "coordinates": {
        "latitude": 34.7292,
        "longitude": -86.5847
      },
      "phone": "(256) 564-8100"
    },
    {
      "name": "U.S. Space & Rocket Center",
      "city": "Huntsville",
      "state": "Alabama",
      "address": "1 Tranquility Base, Huntsville, AL 35805",
      "coordinates": {
        "latitude": 34.7111,
        "longitude": -86.6542
      },
      "phone": "(800) 637-7223"
    },
    {
      "name": "University of South Alabama Archaeology Museum",
      "city": "Mobile",
      "state": "Alabama",
      "address": "6052 USA Dr S, Mobile, AL 36688",
      "coordinates": {
        "latitude": 30.6964,
        "longitude": -88.1783
      },
      "phone": "(251) 460-6106"
    },
    {
      "name": "Vulcan Park & Museum",
      "city": "Birmingham",
      "state": "Alabama",
      "address": "1701 Valley View Dr, Birmingham, AL 35209",
      "coordinates": {
        "latitude": 33.4856,
        "longitude": -86.7928
      },
      "phone": "(205) 933-1409"
    }
  ]
}