[
  {
    "name": "Anderson Abruzzo Albuquerque International Balloon Museum",
    "address": "9201 Balloon Museum Dr NE, Albuquerque, NM 87113",
    "coordinates": {"latitude": 35.1855, "longitude": -106.5980},
    "phone": "(505) 768-6020",
    "website": "https://www.cabq.gov/balloon"
  },
  {
    "name": "Explora Science Center & Children's Museum of Albuquerque",
    "address": "1701 Mountain Rd NW, Albuquerque, NM 87104",
    "coordinates": {"latitude": 35.0971, "longitude": -106.6659},
    "phone": "(505) 224-8300",
    "website": "https://www.explora.us/"
  },
  {
    "name": "Georgia O'Keeffe Museum",
    "address": "217 Johnson St, Santa Fe, NM 87501",
    "coordinates": {"latitude": 35.6870, "longitude": -105.9386},
    "phone": "(505) 946-1000",
    "website": "https://www.okeeffemuseum.org/"
  },
  {
    "name": "Millicent Rogers Museum",
    "address": "1504 Millicent Rogers Rd, El Prado, NM 87529",
    "coordinates": {"latitude": 36.4380, "longitude": -105.5919},
    "phone": "(575) 758-2462",
    "website": "https://www.millicentrogers.org/"
  },
  {
    "name": "Roswell Museum and Art Center",
    "address": "1011 N Richardson Ave, Roswell, NM 88201",
    "coordinates": {"latitude": 33.4019, "longitude": -104.5280},
    "phone": "(575) 624-6744",
    "website": "https://roswell-nm.gov/308/Roswell-Museum"
  },
  {
    "name": "Santa Fe Botanical Garden",
    "address": "715 Camino Lejo, Santa Fe, NM 87505",
    "coordinates": {"latitude": 35.6645, "longitude": -105.9269},
    "phone": "(505) 471-9103",
    "website": "https://santafebotanicalgarden.org/"
  },
  {
    "name": "Santa Fe Children's Museum",
    "address": "1050 Old Pecos Trail, Santa Fe, NM 87505",
    "coordinates": {"latitude": 35.6725, "longitude": -105.9399},
    "phone": "(505) 989-8359",
    "website": "https://santafechildrensmuseum.org/"
  }
]
