{
  "institutions": [
    {
      "name": "Agecroft Hall & Gardens",
      "address": "4305 Sulgrave Rd, Richmond, VA 23221",
      "coordinates": {
        "latitude": 37.5693,
        "longitude": -77.4899
      },
      "phone": "(804) 353-4241",
      "website": "http://www.agecrofthall.com/"
    },
    {
      "name": "Amazement Square",
      "address": "27 9th St, Lynchburg, VA 24504",
      "coordinates": {
        "latitude": 37.4141,
        "longitude": -79.1426
      },
      "phone": "(434) 845-1888",
      "website": "https://www.amazementsquare.org/"
    },
    {
      "name": "American Revolution Museum at Yorktown",
      "address": "200 Water St, Yorktown, VA 23690",
      "coordinates": {
        "latitude": 37.2260,
        "longitude": -76.5100
      },
      "phone": "(888) 593-4682",
      "website": "https://www.historyisfun.org/visit/american-revolution-museum-at-yorktown/"
    },
    {
      "name": "Arlington Historical Museum",
      "address": "1805 S. Arlington Ridge Rd, Arlington, VA 22202",
      "coordinates": {
        "latitude": 38.8531,
        "longitude": -77.0589
      },
      "phone": "(703) 892-4204",
      "website": "https://arlingtonhistoricalsociety.org/museum/"
    },
    {
      "name": "Bacon's Castle",
      "address": "465 Bacon's Castle Dr, Surry, VA 23883",
      "coordinates": {
        "latitude": 37.1003,
        "longitude": -76.7366
      },
      "phone": "(757) 357-5976",
      "website": "http://preservationvirginia.org/site/bacons-castle/"
    },
    {
      "name": "Ball-Sellers House",
      "address": "5620 S 12th St, Arlington, VA 22204",
      "coordinates": {
        "latitude": 38.8447,
        "longitude": -77.0974
      },
      "phone": "(703) 892-4204",
      "website": "http://arlingtonhistoricalsociety.org/ball-sellers-house/"
    },
    {
      "name": "Blue Ridge Institute & Museum",
      "address": "2914 Firehouse Rd, Ferrum, VA 24088",
      "coordinates": {
        "latitude": 36.9828,
        "longitude": -80.0655
      },
      "phone": "(540) 365-4412",
      "website": "http://www.blueridgeinstitute.org/"
    },
    {
      "name": "Cape Henry Lighthouse",
      "address": "583 Atlantic Ave, Fort Story, VA 23459",
      "coordinates": {
        "latitude": 36.9989,
        "longitude": -75.9925
      },
      "phone": "(757) 423-2151",
      "website": "https://www.visitfortstory.com/cape-henry-lighthouse/"
    },
    {
      "name": "Children's Museum of Richmond",
      "address": "2626 W Broad St, Richmond, VA 23220",
      "coordinates": {
        "latitude": 37.5544,
        "longitude": -77.4769
      },
      "phone": "(804) 474-7000",
      "website": "https://www.c-mor.org/"
    },
    {
      "name": "Children's Museum of Virginia",
      "address": "221 High St, Portsmouth, VA 23704",
      "coordinates": {
        "latitude": 36.8357,
        "longitude": -76.2984
      },
      "phone": "(757) 393-5258",
      "website": "https://www.childrensmuseumva.com/"
    },
    {
      "name": "Children's Science Center Lab",
      "address": "11948 Fair Oaks Mall, Fairfax, VA 22033",
      "coordinates": {
        "latitude": 38.8517,
        "longitude": -77.3585
      },
      "phone": "(703) 648-5350",
      "website": "https://childrenssciencecenter.org/"
    },
    {
      "name": "Clarke-Palmore House Museum",
      "address": "2900 Broad St, Henrico, VA 23223",
      "coordinates": {
        "latitude": 37.5842,
        "longitude": -77.3916
      },
      "phone": "(804) 652-3408",
      "website": "https://henrico.us/rec/parks/museums/clarke-palmore-house/"
    },
    {
      "name": "Colonial Williamsburg",
      "address": "101 Visitor Center Dr, Williamsburg, VA 23185",
      "coordinates": {
        "latitude": 37.2764,
        "longitude": -76.7050
      },
      "phone": "(855) 568-6200",
      "website": "https://www.colonialwilliamsburg.com/"
    },
    {
      "name": "Dabbs House Museum",
      "address": "3812 Nine Mile Rd, Henrico, VA 23223",
      "coordinates": {
        "latitude": 37.5530,
        "longitude": -77.3681
      },
      "phone": "(804) 501-2130",
      "website": "https://henrico.us/rec/parks/museums/dabbs-house-museum/"
    },
    {
      "name": "Danville Science Center",
      "address": "677 Craghead St, Danville, VA 24541",
      "coordinates": {
        "latitude": 36.5835,
        "longitude": -79.3928
      },
      "phone": "(434) 791-5160",
      "website": "https://www.danvillesciencecenter.com/"
    },
    {
      "name": "Deep Run School",
      "address": "10199 Borden Rd, Henrico, VA 23233",
      "coordinates": {
        "latitude": 37.6180,
        "longitude": -77.6177
      },
      "phone": "(804) 501-2130",
      "website": "https://henrico.us/rec/parks/museums/deep-run-school/"
    },
    {
      "name": "Deltaville Maritime Museum & Holly Point Nature Park",
      "address": "287 Jackson Creek Rd, Deltaville, VA 23043",
      "coordinates": {
        "latitude": 37.5481,
        "longitude": -76.3194
      },
      "phone": "(804) 776-7200",
      "website": "https://deltavillemuseum.com/"
    },
    {
      "name": "Explore More Discovery Museum",
      "address": "150 S Main St, Harrisonburg, VA 22801",
      "coordinates": {
        "latitude": 38.4492,
        "longitude": -78.8687
      },
      "phone": "(540) 433-0005",
      "website": "https://www.explore-more.org/"
    },
    {
      "name": "Frontier Culture Museum",
      "address": "1290 Red Hills Rd, Staunton, VA 24401",
      "coordinates": {
        "latitude": 38.1585,
        "longitude": -79.0664
      },
      "phone": "(540) 332-7850",
      "website": "https://www.frontiermuseum.org/"
    },
    {
      "name": "George Mason's Gunston Hall",
      "address": "10709 Gunston Rd, Mason Neck, VA 22079",
      "coordinates": {
        "latitude": 38.6895,
        "longitude": -77.2088
      },
      "phone": "(703) 550-9220",
      "website": "https://gunstonhall.org/"
    },
    {
      "name": "George Washington's Mount Vernon",
      "address": "3200 Mount Vernon Memorial Hwy, Mt Vernon, VA 22121",
      "coordinates": {
        "latitude": 38.7071,
        "longitude": -77.0804
      },
      "phone": "(703) 780-2000",
      "website": "https://www.mountvernon.org/"
    },
    {
      "name": "Henricus Historical Park",
      "address": "2510 Henricus Park Rd, Chester, VA 23836",
      "coordinates": {
        "latitude": 37.3232,
        "longitude": -77.4518
      },
      "phone": "(804) 318-8797",
      "website": "https://www.henricus.org/"
    },
    {
      "name": "Hugh Mercer Apothecary Shop",
      "address": "1020 Caroline St, Fredericksburg, VA 22401",
      "coordinates": {
        "latitude": 38.3033,
        "longitude": -77.4603
      },
      "phone": "(540) 373-6122",
      "website": "https://www.historicalfredericksburg.org/"
    },
    {
      "name": "James Monroe's Highland",
      "address": "2050 James Monroe Pkwy, Charlottesville, VA 22902",
      "coordinates": {
        "latitude": 38.0269,
        "longitude": -78.4865
      },
      "phone": "(434) 293-8000",
      "website": "https://www.jamesmonroeshighland.org/"
    },
    {
      "name": "Jamestown Settlement",
      "address": "2110 Jamestown Rd, Williamsburg, VA 23185",
      "coordinates": {
        "latitude": 37.2071,
        "longitude": -76.7219
      },
      "phone": "(888) 593-4682",
      "website": "https://www.historyisfun.org/visit/jamestown-settlement/"
    },
    {
      "name": "John Marshall House",
      "address": "818 E Marshall St, Richmond, VA 23219",
      "coordinates": {
        "latitude": 37.5351,
        "longitude": -77.4311
      },
      "phone": "(804) 648-7998",
      "website": "http://www.wm.edu/as/johnmarshallhouse/"
    },
    {
      "name": "Lewis Ginter Botanical Garden",
      "address": "1800 Lakeside Ave, Richmond, VA 23228",
      "coordinates": {
        "latitude": 37.6068,
        "longitude": -77.5019
      },
      "phone": "(804) 262-9887",
      "website": "https://www.lewisginter.org/"
    },
    {
      "name": "Mary Washington House",
      "address": "1200 Charles St, Fredericksburg, VA 22401",
      "coordinates": {
        "latitude": 38.3038,
        "longitude": -77.4692
      },
      "phone": "(540) 373-1560",
      "website": "https://www.historicalfredericksburg.org/"
    },
    {
      "name": "Maymont",
      "address": "2201 Shields Lake Dr, Richmond, VA 23220",
      "coordinates": {
        "latitude": 37.5630,
        "longitude": -77.4720
      },
      "phone": "(804) 358-7166",
      "website": "https://maymont.org/"
    },
    {
      "name": "Meadow Farm Museum at Crump Park",
      "address": "3401 New Market Rd, Glen Allen, VA 23060",
      "coordinates": {
        "latitude": 37.5795,
        "longitude": -77.4689
      },
      "phone": "(804) 501-2130",
      "website": "https://www.henrico.us/rec/parks/museums/meadow-farm-museum/"
    },
    {
      "name": "Menokin",
      "address": "4037 Menokin Rd, Warsaw, VA 22572",
      "coordinates": {
        "latitude": 37.7840,
        "longitude": -76.7545
      },
      "phone": "(804) 333-1776",
      "website": "http://www.menokin.org/"
    },
    {
      "name": "Monticello",
      "address": "931 Thomas Jefferson Pkwy, Charlottesville, VA 22902",
      "coordinates": {
        "latitude": 37.9956,
        "longitude": -78.4587
      },
      "phone": "(434) 984-9800",
      "website": "https://www.monticello.org/"
    },
    {
      "name": "Museum of the Shenandoah Valley",
      "address": "901 Amherst St, Winchester, VA 22601",
      "coordinates": {
        "latitude": 39.1835,
        "longitude": -78.1577
      },
      "phone": "(540) 662-1473",
      "website": "https://www.shenandoahmuseum.org/"
    },
    {
      "name": "NASA's Wallops Island Flight Facility Visitor Center",
      "address": "NASA Wallops Flight Facility, Wallops Island, VA 23337",
      "coordinates": {
        "latitude": 37.9548,
        "longitude": -75.4674
      },
      "phone": "(757) 824-1344",
      "website": "https://www.nasa.gov/centers/wallops/visitor/index.html"
    },
    {
      "name": "National Sporting Library & Museum",
      "address": "102 The Plains Rd, Middleburg, VA 20117",
      "coordinates": {
        "latitude": 38.9677,
        "longitude": -77.6055
      },
      "phone": "(540) 687-6542",
      "website": "https://www.nsl.org/"
    },
    {
      "name": "Nauticus",
      "address": "1 Waterside Dr, Norfolk, VA 23510",
      "coordinates": {
        "latitude": 36.8468,
        "longitude": -76.2875
      },
      "phone": "(757) 664-1000",
      "website": "https://nauticus.org/"
    },
    {
      "name": "Norfolk Botanical Garden",
      "address": "6700 Azalea Garden Rd, Norfolk, VA 23518",
      "coordinates": {
        "latitude": 36.8875,
        "longitude": -76.2030
      },
      "phone": "(757) 441-5830",
      "website": "https://norfolkbotanicalgarden.org/"
    },
    {
      "name": "Patrick Henry's Red Hill",
      "address": "1250 Red Hill Rd, Brookneal, VA 24528",
      "coordinates": {
        "latitude": 37.1124,
        "longitude": -79.1665
      },
      "phone": "(434) 376-2044",
      "website": "https://www.redhill.org/"
    },
    {
      "name": "Patrick Henry's Scotchtown",
      "address": "16120 Scotchtown Rd, Beaverdam, VA 23015",
      "coordinates": {
        "latitude": 37.8373,
        "longitude": -77.4908
      },
      "phone": "(804) 227-3500",
      "website": "http://www.patrickhenryscotchtown.org/"
    },
    {
      "name": "Rising Sun Tavern",
      "address": "1304 Caroline St, Fredericksburg, VA 22401",
      "coordinates": {
        "latitude": 38.3025,
        "longitude": -77.4629
      },
      "phone": "(540) 373-1494",
      "website": "http://www.historicalfredericksburg.org/"
    },
    {
      "name": "Roanoke History & O. Winston Link Museums",
      "address": "101 Shenandoah Ave NW, Roanoke, VA 24016",
      "coordinates": {
        "latitude": 37.2706,
        "longitude": -79.9414
      },
      "phone": "(540) 342-5770",
      "website": "http://www.roanokehistory.org/"
    },
    {
      "name": "Science Museum of Virginia",
      "address": "2500 W Broad St, Richmond, VA 23220",
      "coordinates": {
        "latitude": 37.5537,
        "longitude": -77.4696
      },
      "phone": "(804) 864-1400",
      "website": "https://smv.org/"
    },
    {
      "name": "Science Museum of Western Virginia",
      "address": "1 Market Sq SW, Roanoke, VA 24011",
      "coordinates": {
        "latitude": 37.2727,
        "longitude": -79.9411
      },
      "phone": "(540) 342-5670",
      "website": "http://www.smwv.org/"
    },
    {
      "name": "Shenandoah Valley Discovery Museum",
      "address": "19 W Cork St, Winchester, VA 22601",
      "coordinates": {
        "latitude": 39.1847,
        "longitude": -78.1636
      },
      "phone": "(540) 722-2020",
      "website": "http://www.discoverymuseum.net/"
    },
    {
      "name": "Smith's Fort",
      "address": "1200 Smith Fort Ln, Surry, VA 23883",
      "coordinates": {
        "latitude": 37.0943,
        "longitude": -76.7430
      },
      "phone": "(757) 357-5976",
      "website": "http://preservationvirginia.org/site/smiths-fort/"
    },
    {
      "name": "St. Luke's Historic Church & Museum",
      "address": "14477 John Tyler Hwy, Smithfield, VA 23430",
      "coordinates": {
        "latitude": 37.0669,
        "longitude": -76.6157
      },
      "phone": "(757) 357-3367",
      "website": "https://www.stlukeshistoricchurch.org/"
    },
    {
      "name": "Stratford Hall Historic Preserve",
      "address": "483 Great House Rd, Colonial Beach, VA 22443",
      "coordinates": {
        "latitude": 37.0732,
        "longitude": -76.9515
      },
      "phone": "(804) 493-8038",
      "website": "http://www.stratfordhall.org/"
    },
    {
      "name": "Taubman Museum of Art",
      "address": "110 Salem Ave SE, Roanoke, VA 24011",
      "coordinates": {
        "latitude": 37.2738,
        "longitude": -79.9413
      },
      "phone": "(540) 342-5760",
      "website": "https://www.taubmanmuseum.org/"
    },
    {
      "name": "The American Civil War Museum",
      "address": "500 Tredegar St, Richmond, VA 23219",
      "coordinates": {
        "latitude": 37.5336,
        "longitude": -77.4473
      },
      "phone": "(804) 775-1815",
      "website": "https://acwm.org/"
    },
    {
      "name": "The Birthplace of Country Music Museum",
      "address": "520 Birthplace of Country Music Way, Bristol, VA 24201",
      "coordinates": {
        "latitude": 36.5945,
        "longitude": -82.1881
      },
      "phone": "(423) 573-1927",
      "website": "https://www.birthplaceofcountrymusic.org/"
    },
    {
      "name": "The Hunter House Victorian Museum",
      "address": "4740 Morningside Dr, Norfolk, VA 23508",
      "coordinates": {
        "latitude": 36.9054,
        "longitude": -76.2822
      },
      "phone": "(757) 623-9814",
      "website": "http://www.historicnorfolk.org/hunter_house/"
    },
    {
      "name": "The Mariners' Museum and Park",
      "address": "100 Museum Dr, Newport News, VA 23606",
      "coordinates": {
        "latitude": 37.0320,
        "longitude": -76.4873
      },
      "phone": "(757) 596-2222",
      "website": "https://www.marinersmuseum.org/"
    },
    {
      "name": "The Poe Museum",
      "address": "1914 E Main St, Richmond, VA 23223",
      "coordinates": {
        "latitude": 37.5312,
        "longitude": -77.4214
      },
      "phone": "(804) 648-5523",
      "website": "http://poemuseum.org/"
    },
    {
      "name": "The Valentine",
      "address": "1015 E Clay St, Richmond, VA 23219",
      "coordinates": {
        "latitude": 37.5312,
        "longitude": -77.4360
      },
      "phone": "(804) 649-0711",
      "website": "https://thevalentine.org/"
    },
    {
      "name": "The Woodrow Wilson Presidential Library & Museum",
      "address": "20 N Coalter St, Staunton, VA 24401",
      "coordinates": {
        "latitude": 38.1493,
        "longitude": -79.0740
      },
      "phone": "(540) 885-0897",
      "website": "https://www.woodrowwilson.org/"
    },
    {
      "name": "Three Lakes Park & Nature Center",
      "address": "4001 W 3 Notch Rd, Henrico, VA 23228",
      "coordinates": {
        "latitude": 37.6384,
        "longitude": -77.5142
      },
      "phone": "(804) 501-5134",
      "website": "https://henrico.us/rec/parks/nature/three-lakes-park-nature-center/"
    },
    {
      "name": "Virginia Air & Space Science Center",
      "address": "600 Settlers Landing Rd, Hampton, VA 23669",
      "coordinates": {
        "latitude": 37.0351,
        "longitude": -76.3270
      },
      "phone": "(757) 727-0900",
      "website": "http://www.vasc.org/"
    },
    {
      "name": "Virginia Living Museum",
      "address": "524 J. Clyde Morris Blvd, Newport News, VA 23601",
      "coordinates": {
        "latitude": 37.0671,
        "longitude": -76.4719
      },
      "phone": "(757) 595-1900",
      "website": "https://www.thevlm.org/"
    },
    {
      "name": "Virginia Museum of Contemporary Art",
      "address": "2200 Parks Ave, Virginia Beach, VA 23451",
      "coordinates": {
        "latitude": 36.8530,
        "longitude": -75.9780
      },
      "phone": "(757) 425-0000",
      "website": "https://www.vmoca.org/"
    },
    {
      "name": "Virginia Museum of Fine Arts",
      "address": "200 N Arthur Ashe Blvd, Richmond, VA 23220",
      "coordinates": {
        "latitude": 37.5533,
        "longitude": -77.4875
      },
      "phone": "(804) 340-1400",
      "website": "https://vmfa.museum/"
    },
    {
      "name": "Virginia Museum of History & Culture",
      "address": "428 N Arthur Ashe Blvd, Richmond, VA 23220",
      "coordinates": {
        "latitude": 37.5563,
        "longitude": -77.4855
      },
      "phone": "(804) 340-1800",
      "website": "https://virginiahistory.org/"
    },
    {
      "name": "Virginia Museum of Natural History",
      "address": "1001 Bruce Rd, Martinsville, VA 24112",
      "coordinates": {
        "latitude": 36.6764,
        "longitude": -79.8670
      },
      "phone": "(276) 634-4141",
      "website": "http://www.vmnh.net/"
    },
    {
      "name": "Virginia Randolph Museum",
      "address": "2200 Mountain Rd, Glen Allen, VA 23060",
      "coordinates": {
        "latitude": 37.6360,
        "longitude": -77.4705
      },
      "phone": "(804) 501-2130",
      "website": "https://henrico.us/rec/parks/museums/virginia-randolph-museum/"
    },
    {
      "name": "Weems-Botts Museum",
      "address": "394 Old Bridge Rd, Dumfries, VA 22026",
      "coordinates": {
        "latitude": 38.5864,
        "longitude": -77.3297
      },
      "phone": "(703) 221-2218",
      "website": "http://www.weems-botts.org/"
    },
    {
      "name": "Wilton House Museum",
      "address": "215 S Wilton Rd, Richmond, VA 23226",
      "coordinates": {
        "latitude": 37.5695,
        "longitude": -77.5229
      },
      "phone": "(804) 282-2560",
      "website": "http://www.wiltonhousemuseum.org/"
    },
    {
      "name": "Wonder Universe",
      "address": "20 E Main St, Christiansburg, VA 24073",
      "coordinates": {
        "latitude": 37.1296,
        "longitude": -80.4101
      },
      "phone": "(540) 381-0267",
      "website": "https://wonderuniverse.org/"
    },
    {
      "name": "Woodlawn & Pope-Leighey House",
      "address": "9000 Richmond Hwy, Alexandria, VA 22309",
      "coordinates": {
        "latitude": 38.7100,
        "longitude": -77.0740
      },
      "phone": "(703) 780-4000",
      "website": "https://www.woodlawnpopeleighey.org/"
    }
  ]
}