[
  {
    "name": "Appalachian Forest Discovery Center",
    "address": "3 Railroad Ave, Elkins, WV 26241",
    "coordinates": {
      "latitude": 38.9239,
      "longitude": -79.8467
    },
    "phone": "(304) 636-6182",
    "website": "https://www.appalachianforest.us"
  },
  {
    "name": "Arthurdale Heritage, Inc.",
    "address": "1 Arthurdale Square, Arthurdale, WV 26520",
    "coordinates": {
      "latitude": 39.4950,
      "longitude": -79.8153
    },
    "phone": "(304) 864-3959",
    "website": "https://www.arthurdaleheritage.org"
  },
  {
    "name": "Beverly Heritage Center",
    "address": "4 Court St, Beverly, WV 26253",
    "coordinates": {
      "latitude": 38.8419,
      "longitude": -79.8750
    },
    "phone": "(304) 637-7424",
    "website": "https://www.beverlyheritagecenter.org"
  },
  {
    "name": "Discovery World on Market",
    "address": "113 Market St, Parkersburg, WV 26101",
    "coordinates": {
      "latitude": 39.2625,
      "longitude": -81.5614
    },
    "phone": "(304) 420-4420",
    "website": "https://www.discoveryworldonmarket.com"
  },
  {
    "name": "Huntington Children's Museum",
    "address": "1208 7th Ave, Huntington, WV 25701",
    "coordinates": {
      "latitude": 38.4208,
      "longitude": -82.4347
    },
    "phone": "(304) 523-6585",
    "website": "https://www.huntingtonchildrensmuseum.org"
  },
  {
    "name": "Spark! Imagination and Science Center",
    "address": "5000 Greenbag Rd, Morgantown, WV 26501",
    "coordinates": {
      "latitude": 39.6292,
      "longitude": -79.9536
    },
    "phone": "(304) 292-4646",
    "website": "https://www.sparkwv.org"
  }
]