[
  {
    "name": "Campbell County Rockpile Museum",
    "address": "900 W 2nd St, Gillette, WY 82716",
    "coordinates": {
      "latitude": 44.2919,
      "longitude": -105.5056
    },
    "phone": "(307) 682-5723",
    "website": "https://www.rockpilemuseum.com"
  },
  {
    "name": "Cheyenne Children's Museum",
    "address": "1618 O'Neil Ave, Cheyenne, WY 82001",
    "coordinates": {
      "latitude": 41.1408,
      "longitude": -104.8203
    },
    "phone": "(307) 778-1551",
    "website": "https://www.cheyennechildrensmuseum.org"
  },
  {
    "name": "Lander Children's Museum",
    "address": "545 Lincoln St, Lander, WY 82520",
    "coordinates": {
      "latitude": 42.8336,
      "longitude": -108.7308
    },
    "phone": "(307) 335-8278",
    "website": "https://www.landerchildrensmuseum.org"
  },
  {
    "name": "University of Wyoming Art Museum",
    "address": "2111 Willett Dr, Laramie, WY 82071",
    "coordinates": {
      "latitude": 41.3139,
      "longitude": -105.5758
    },
    "phone": "(307) 766-6622",
    "website": "https://www.uwyo.edu/artmuseum"
  }
]