[
  {
    "name": "Abbe Museum",
    "address": "26 Mount Desert St, Bar Harbor, ME 04609",
    "coordinates": {
      "latitude": 44.3875,
      "longitude": -68.2050
    },
    "phone": "(207) 288-3519",
    "website": "https://www.abbemuseum.org"
  },
  {
    "name": "Brick Store Museum",
    "address": "117 Main St, Kennebunk, ME 04043",
    "coordinates": {
      "latitude": 43.3839,
      "longitude": -70.5450
    },
    "phone": "(207) 985-4802",
    "website": "https://www.brickstoremuseum.org"
  },
  {
    "name": "Children's Museum & Theatre of Maine",
    "address": "250 Thompson's Point Rd, Portland, ME 04102",
    "coordinates": {
      "latitude": 43.6514,
      "longitude": -70.2900
    },
    "phone": "(207) 828-1234",
    "website": "https://www.kitetails.org"
  },
  {
    "name": "Coastal Maine Botanical Gardens",
    "address": "132 Botanical Gardens Dr, Boothbay, ME 04537",
    "coordinates": {
      "latitude": 43.8764,
      "longitude": -69.6425
    },
    "phone": "(207) 633-4333",
    "website": "https://www.mainegardens.org"
  },
  {
    "name": "Franco Center",
    "address": "46 Cedar St, Lewiston, ME 04240",
    "coordinates": {
      "latitude": 44.0958,
      "longitude": -70.2169
    },
    "phone": "(207) 783-1585",
    "website": "https://www.francocenter.org"
  },
  {
    "name": "Historic New England - Castle Tucker",
    "address": "2 Lee St, Wiscasset, ME 04578",
    "coordinates": {
      "latitude": 44.0025,
      "longitude": -69.6650
    },
    "phone": "(207) 882-7169",
    "website": "https://www.historicnewengland.org"
  },
  {
    "name": "Historic New England - Hamilton House",
    "address": "40 Vaughan's Lane, South Berwick, ME 03908",
    "coordinates": {
      "latitude": 43.2342,
      "longitude": -70.8089
    },
    "phone": "(207) 384-2454",
    "website": "https://www.historicnewengland.org"
  },
  {
    "name": "Historic New England - Marrett House",
    "address": "40 Marrett Rd, Standish, ME 04084",
    "coordinates": {
      "latitude": 43.7358,
      "longitude": -70.5519
    },
    "phone": "(207) 384-2454",
    "website": "https://www.historicnewengland.org"
  },
  {
    "name": "Historic New England - Nickels-Sortwell House",
    "address": "121 Main St, Wiscasset, ME 04578",
    "coordinates": {
      "latitude": 44.0028,
      "longitude": -69.6653
    },
    "phone": "(207) 882-7169",
    "website": "https://www.historicnewengland.org"
  },
  {
    "name": "Historic New England - Sarah Orne Jewett House Museum and Visitor Center",
    "address": "5 Portland St, South Berwick, ME 03908",
    "coordinates": {
      "latitude": 43.2344,
      "longitude": -70.8092
    },
    "phone": "(207) 384-2454",
    "website": "https://www.historicnewengland.org"
  },
  {
    "name": "Historic New England - Sayward-Wheeler House",
    "address": "9 Barrell Lane, York Harbor, ME 03911",
    "coordinates": {
      "latitude": 43.1436,
      "longitude": -70.6481
    },
    "phone": "(207) 384-2454",
    "website": "https://www.historicnewengland.org"
  },
  {
    "name": "L.C. Bates Museum",
    "address": "14 Easler Rd, Hinckley, ME 04944",
    "coordinates": {
      "latitude": 44.6850,
      "longitude": -69.6208
    },
    "phone": "(207) 238-4250",
    "website": "https://www.gwh.org/lc-bates-museum"
  },
  {
    "name": "Maine Historical Society",
    "address": "489 Congress St, Portland, ME 04101",
    "coordinates": {
      "latitude": 43.6542,
      "longitude": -70.2608
    },
    "phone": "(207) 774-1822",
    "website": "https://www.mainehistory.org"
  },
  {
    "name": "Maine Maritime Museum",
    "address": "243 Washington St, Bath, ME 04530",
    "coordinates": {
      "latitude": 43.9100,
      "longitude": -69.8150
    },
    "phone": "(207) 443-1316",
    "website": "https://www.mainemaritimemuseum.org"
  },
  {
    "name": "Maine Mineral & Gem Museum",
    "address": "99 Main St, Bethel, ME 04217",
    "coordinates": {
      "latitude": 44.4081,
      "longitude": -70.7900
    },
    "phone": "(207) 824-3036",
    "website": "https://www.mainemineralmuseum.org"
  },
  {
    "name": "Maine Museum of Innovation, Learning and Labor",
    "address": "1 Museum Ct, Lewiston, ME 04240",
    "coordinates": {
      "latitude": 44.0961,
      "longitude": -70.2172
    },
    "phone": "(207) 333-3886",
    "website": "https://www.mainemill.org"
  },
  {
    "name": "Museum of Maritime Pets",
    "address": "1 Pleasant St, Rockland, ME 04841",
    "coordinates": {
      "latitude": 44.1036,
      "longitude": -69.1089
    },
    "phone": "(207) 701-7624",
    "website": "https://www.museumofmaritimepets.org"
  },
  {
    "name": "Ogunquit Museum of American Art",
    "address": "543 Shore Rd, Ogunquit, ME 03907",
    "coordinates": {
      "latitude": 43.2439,
      "longitude": -70.5931
    },
    "phone": "(207) 646-4909",
    "website": "https://www.ogunquitmuseum.org"
  },
  {
    "name": "Our Heroes Military Museum",
    "address": "25 West Broadway, Lincoln, ME 04457",
    "coordinates": {
      "latitude": 45.3625,
      "longitude": -68.5050
    },
    "phone": "(207) 794-3500",
    "website": "https://www.ourheroesmilitarymuseum.org"
  },
  {
    "name": "Owls Head Transportation Museum",
    "address": "117 Museum St, Owls Head, ME 04854",
    "coordinates": {
      "latitude": 44.0822,
      "longitude": -69.0578
    },
    "phone": "(207) 594-4418",
    "website": "https://www.owlshead.org"
  },
  {
    "name": "Portland Museum of Art",
    "address": "7 Congress Sq, Portland, ME 04101",
    "coordinates": {
      "latitude": 43.6536,
      "longitude": -70.2628
    },
    "phone": "(207) 775-6148",
    "website": "https://www.portlandmuseum.org"
  },
  {
    "name": "Rufus Porter Museum of Art and Ingenuity",
    "address": "67 N High St, Bridgton, ME 04009",
    "coordinates": {
      "latitude": 44.0547,
      "longitude": -70.7089
    },
    "phone": "(207) 647-2828",
    "website": "https://www.rufusportermuseum.org"
  },
  {
    "name": "Victoria Mansion",
    "address": "109 Danforth St, Portland, ME 04101",
    "coordinates": {
      "latitude": 43.6519,
      "longitude": -70.2639
    },
    "phone": "(207) 772-4841",
    "website": "https://www.victoriamansion.org"
  },
  {
    "name": "Wilson Museum",
    "address": "120 Perkins St, Castine, ME 04421",
    "coordinates": {
      "latitude": 44.3878,
      "longitude": -68.7989
    },
    "phone": "(207) 326-9247",
    "website": "https://www.wilsonmuseum.org"
  }
]