[
  {
    "name": "ExplorationWorks",
    "address": "995 Carousel Way, Helena, MT 59601",
    "coordinates": {"latitude": 46.5958, "longitude": -112.0353},
    "phone": "(406) 457-1800",
    "website": "https://www.explorationworks.org/"
  },
  {
    "name": "Families First Children's Museum",
    "address": "455 E Main St., Missoula, MT 59802",
    "coordinates": {"latitude": 46.8721, "longitude": -113.9930},
    "phone": "406.721.7690",
    "website": "https://www.familiesfirstmt.org/"
  },
  {
    "name": "Hockaday Museum of Art",
    "address": "302 2nd Avenue East, Kalispell, MT 59901",
    "coordinates": {"latitude": 48.1964, "longitude": -114.3120},
    "phone": "406-755-5268",
    "website": "https://www.hockadaymuseum.org/"
  },
  {
    "name": "Missoula Butterfly House and Insectarium",
    "address": "1075 South Ave. West, Suite 2, Missoula, MT 59801",
    "coordinates": {"latitude": 46.8465, "longitude": -114.0188},
    "phone": "406-317-1211",
    "website": "https://www.missoulabutterflyhouse.org/"
  },
  {
    "name": "Montana Natural History Center",
    "address": "120 Hickory St., Suite A, Missoula, MT 59801",
    "coordinates": {"latitude": 46.8662, "longitude": -113.9920},
    "phone": "406.327.0405",
    "website": "https://www.montananaturalist.org/"
  },
  {
    "name": "Montana Science Center",
    "address": "2744 W Main St., Bozeman, MT 59718",
    "coordinates": {"latitude": 45.6793, "longitude": -111.0630},
    "phone": "(406) 522-9087",
    "website": "https://montanasciencecenter.org/"
  },
  {
    "name": "Moss Mansion Museum",
    "address": "914 Division St., Billings, MT 59101",
    "coordinates": {"latitude": 45.7833, "longitude": -108.5217},
    "phone": "(406) 256-5100",
    "website": "https://mossmansion.com/"
  },
  {
    "name": "spectrUM Discovery Area",
    "address": "455 East Main Street, Missoula, MT 59802",
    "coordinates": {"latitude": 46.8721, "longitude": -113.9930},
    "phone": "(406) 728-7836",
    "website": "https://www.umt.edu/spectrum/"
  },
  {
    "name": "The World Museum of Mining",
    "address": "155 Museum Way, Butte, MT 59701",
    "coordinates": {"latitude": 45.9931, "longitude": -112.5241},
    "phone": "406-723-7211",
    "website": "https://miningmuseum.org/"
  },
  {
    "name": "Western Heritage Center",
    "address": "2822 Montana Avenue, Billings, MT 59101",
    "coordinates": {"latitude": 45.7806, "longitude": -108.5050},
    "phone": "406-256-6809",
    "website": "https://www.ywhc.org/"
  },
  {
    "name": "Wise Wonders Science & Discovery Museum",
    "address": "3024 2nd Ave N, Billings, MT 59101",
    "coordinates": {"latitude": 45.7825, "longitude": -108.5050},
    "phone": "(406) 702-1280",
    "website": "https://wisewonders.org/"
  },
  {
    "name": "Yellowstone Art Museum",
    "address": "401 North 27th Street, Billings, MT 59101",
    "coordinates": {"latitude": 45.7830, "longitude": -108.5007},
    "phone": "406.256.6804",
    "website": "https://www.artmuseum.org/"
  }
]
